[
  {
    "key" : "BT",
    "name" : "Botafogo",
    "latitude" : -22.67703059333655, 
    "longitude" : -43.74159574525554
  },
  {
    "key" : "facility",
    "name" : "Facility",
    "latitude" : -22.760366803540773,
    "longitude" : -43.43123074682005
  },
  {
    "key" : "cli",
    "name" : "Clínica Amor&Saúde",
    "latitude" : -22.912929860679778,
    "longitude" : -43.68699732744344
  },
  {
    "key" : "pvt",
    "name" : "povão Volta redonda",
    "latitude" : -22.51292543934362, 
    "longitude" : -44.09311478943527
  },
  {
    "key" : "pvbarra",
    "name" : "povão Barra do Piraí",
    "latitude" : -22.466344499198296,
    "longitude" : -43.826320862506954
  }
]

  
